{"businesses": [{"id": "bJu0A9nBKZU3Tc2qOEq1og", "alias": "brewing-buddha-cafe-and-arthouse-miami", "name": "Brewing Buddha Cafe & Arthouse", "image_url": "https://s3-media2.fl.yelpcdn.com/bphoto/yvi8Sv7UCX2Enn2f8V9r-w/o.jpg", "is_closed": false, "url": "https://www.yelp.com/biz/brewing-buddha-cafe-and-arthouse-miami?adjust_creative=hefHs3LeeOye9_tFRylSMQ&utm_campaign=yelp_api_v3&utm_medium=api_v3_business_search&utm_source=hefHs3LeeOye9_tFRylSMQ", "review_count": 291, "categories": [{"alias": "coffee", "title": "Coffee & Tea"}, {"alias": "galleries", "title": "Art Galleries"}], "rating": 5.0, "coordinates": {"latitude": 25.655492, "longitude": -80.326806}, "transactions": ["delivery"], "price": "$$", "location": {"address1": "8219 SW 124th St", "address2": null, "address3": "", "city": "Miami", "zip_code": "33156", "country": "US", "state": "FL", "display_address": ["8219 SW 124th St", "Miami, FL 33156"]}, "phone": "+17868423342", "display_phone": "(786) 842-3342", "distance": 11491.450818139701}, {"id": "K3Qo1HcNxJ7ujIJb59ND0w", "alias": "white-rose-coffee-west-miami-2", "name": "White Rose Coffee", "image_url": "https://s3-media3.fl.yelpcdn.com/bphoto/OK8rXUEuL7eq8GeeVR4ETg/o.jpg", "is_closed": false, "url": "https://www.yelp.com/biz/white-rose-coffee-west-miami-2?adjust_creative=hefHs3LeeOye9_tFRylSMQ&utm_campaign=yelp_api_v3&utm_medium=api_v3_business_search&utm_source=hefHs3LeeOye9_tFRylSMQ", "review_count": 112, "categories": [{"alias": "coffee", "title": "Coffee & Tea"}], "rating": 4.5, "coordinates": {"latitude": 25.7631555, "longitude": -80.2966891}, "transactions": ["delivery"], "price": "$$", "location": {"address1": "6246 SW 8th St", "address2": null, "address3": "", "city": "West Miami", "zip_code": "33144", "country": "US", "state": "FL", "display_address": ["6246 SW 8th St", "West Miami, FL 33144"]}, "phone": "", "display_phone": "", "distance": 1462.0700002025626}, {"id": "aebbCEZCnm6S9IIXJfuVIA", "alias": "la-colada-gourmet-miami-4", "name": "La Colada Gourmet", "image_url": "https://s3-media3.fl.yelpcdn.com/bphoto/_H7G4nAfFAtxj5cMTbxHpQ/o.jpg", "is_closed": false, "url": "https://www.yelp.com/biz/la-colada-gourmet-miami-4?adjust_creative=hefHs3LeeOye9_tFRylSMQ&utm_campaign=yelp_api_v3&utm_medium=api_v3_business_search&utm_source=hefHs3LeeOye9_tFRylSMQ", "review_count": 139, "categories": [{"alias": "coffee", "title": "Coffee & Tea"}, {"alias": "chocolate", "title": "Chocolatiers & Shops"}], "rating": 5.0, "coordinates": {"latitude": 25.76547, "longitude": -80.21995}, "transactions": [], "price": "$", "location": {"address1": "1518 SW 8th St", "address2": "", "address3": null, "city": "Miami", "zip_code": "33135", "country": "US", "state": "FL", "display_address": ["1518 SW 8th St", "Miami, FL 33135"]}, "phone": "+13055825762", "display_phone": "(305) 582-5762", "distance": 6968.526860414426}, {"id": "r97cCLpQstJCWkVRpbiRrA", "alias": "macondo-coffee-roaster-doral", "name": "Macondo Coffee Roaster", "image_url": "https://s3-media2.fl.yelpcdn.com/bphoto/_ESb9E71QYNR-2KLox_ifg/o.jpg", "is_closed": false, "url": "https://www.yelp.com/biz/macondo-coffee-roaster-doral?adjust_creative=hefHs3LeeOye9_tFRylSMQ&utm_campaign=yelp_api_v3&utm_medium=api_v3_business_search&utm_source=hefHs3LeeOye9_tFRylSMQ", "review_count": 655, "categories": [{"alias": "coffee", "title": "Coffee & Tea"}, {"alias": "breakfast_brunch", "title": "Breakfast & Brunch"}, {"alias": "sandwiches", "title": "Sandwiches"}], "rating": 4.5, "coordinates": {"latitude": 25.796394, "longitude": -80.342976}, "transactions": ["pickup"], "price": "$", "location": {"address1": "2494 NW 89th Pl", "address2": "", "address3": "", "city": "Doral", "zip_code": "33172", "country": "US", "state": "FL", "display_address": ["2494 NW 89th Pl", "Doral, FL 33172"]}, "phone": "+13055943808", "display_phone": "(305) 594-3808", "distance": 7331.873446421244}, {"id": "tmEzWqcpWTH3By6_dGhMqg", "alias": "breezeblock-coffee-miami", "name": "Breezeblock Coffee", "image_url": "https://s3-media1.fl.yelpcdn.com/bphoto/cz3A1UrB6CRm7Cb6sEg0Zw/o.jpg", "is_closed": false, "url": "https://www.yelp.com/biz/breezeblock-coffee-miami?adjust_creative=hefHs3LeeOye9_tFRylSMQ&utm_campaign=yelp_api_v3&utm_medium=api_v3_business_search&utm_source=hefHs3LeeOye9_tFRylSMQ", "review_count": 1, "categories": [{"alias": "coffee", "title": "Coffee & Tea"}, {"alias": "breakfast_brunch", "title": "Breakfast & Brunch"}], "rating": 5.0, "coordinates": {"latitude": 25.77786, "longitude": -80.18962}, "transactions": [], "location": {"address1": "230 NE 4th St", "address2": null, "address3": "", "city": "Miami", "zip_code": "33132", "country": "US", "state": "FL", "display_address": ["230 NE 4th St", "Miami, FL 33132"]}, "phone": "", "display_phone": "", "distance": 10239.351973307706}, {"id": "XnpCTDsJ_ETcltDY-A7CSw", "alias": "panther-coffee-miami", "name": "Panther Coffee", "image_url": "https://s3-media2.fl.yelpcdn.com/bphoto/VyBA_-KcmpmKrzeRxvd3xw/o.jpg", "is_closed": false, "url": "https://www.yelp.com/biz/panther-coffee-miami?adjust_creative=hefHs3LeeOye9_tFRylSMQ&utm_campaign=yelp_api_v3&utm_medium=api_v3_business_search&utm_source=hefHs3LeeOye9_tFRylSMQ", "review_count": 989, "categories": [{"alias": "coffee", "title": "Coffee & Tea"}, {"alias": "coffeeroasteries", "title": "Coffee Roasteries"}], "rating": 4.0, "coordinates": {"latitude": 25.79994, "longitude": -80.19924}, "transactions": ["delivery", "pickup"], "price": "$$", "location": {"address1": "2390 NW 2nd Ave", "address2": "", "address3": "", "city": "Miami", "zip_code": "33127", "country": "US", "state": "FL", "display_address": ["2390 NW 2nd Ave", "Miami, FL 33127"]}, "phone": "+13056773952", "display_phone": "(305) 677-3952", "distance": 10319.387341782667}, {"id": "SW0u7IhGH57Ps_xz_YgnbQ", "alias": "panther-coffee-miami-2", "name": "Panther Coffee", "image_url": "https://s3-media4.fl.yelpcdn.com/bphoto/q52FpibbDz5u5C8ERJ4iIw/o.jpg", "is_closed": false, "url": "https://www.yelp.com/biz/panther-coffee-miami-2?adjust_creative=hefHs3LeeOye9_tFRylSMQ&utm_campaign=yelp_api_v3&utm_medium=api_v3_business_search&utm_source=hefHs3LeeOye9_tFRylSMQ", "review_count": 165, "categories": [{"alias": "coffee", "title": "Coffee & Tea"}, {"alias": "coffeeroasteries", "title": "Coffee Roasteries"}], "rating": 4.0, "coordinates": {"latitude": 25.727675, "longitude": -80.242379}, "transactions": ["delivery", "pickup"], "price": "$$", "location": {"address1": "3407 Main Hwy", "address2": "", "address3": "", "city": "Miami", "zip_code": "33133", "country": "US", "state": "FL", "display_address": ["3407 Main Hwy", "Miami, FL 33133"]}, "phone": "+13056773952", "display_phone": "(305) 677-3952", "distance": 5360.51124427637}, {"id": "x6bUHTUOJYuCOFt2AOhWyw", "alias": "our-grounds-miami", "name": "Our Grounds", "image_url": "https://s3-media4.fl.yelpcdn.com/bphoto/tccOGXXM9xnmyJGwjCt_MA/o.jpg", "is_closed": false, "url": "https://www.yelp.com/biz/our-grounds-miami?adjust_creative=hefHs3LeeOye9_tFRylSMQ&utm_campaign=yelp_api_v3&utm_medium=api_v3_business_search&utm_source=hefHs3LeeOye9_tFRylSMQ", "review_count": 34, "categories": [{"alias": "coffee", "title": "Coffee & Tea"}], "rating": 5.0, "coordinates": {"latitude": 25.668738, "longitude": -80.378475}, "transactions": [], "price": "$", "location": {"address1": "10714 SW 113th Pl", "address2": null, "address3": "", "city": "Miami", "zip_code": "33176", "country": "US", "state": "FL", "display_address": ["10714 SW 113th Pl", "Miami, FL 33176"]}, "phone": "+17863532997", "display_phone": "(786) 353-2997", "distance": 13010.808654909295}, {"id": "-KzadP43SGTX-l9jyqLdEQ", "alias": "eternity-coffee-roasters-miami-2", "name": "Eternity Coffee Roasters", "image_url": "https://s3-media1.fl.yelpcdn.com/bphoto/c6hecWKM4MgOrRv5w2mEug/o.jpg", "is_closed": false, "url": "https://www.yelp.com/biz/eternity-coffee-roasters-miami-2?adjust_creative=hefHs3LeeOye9_tFRylSMQ&utm_campaign=yelp_api_v3&utm_medium=api_v3_business_search&utm_source=hefHs3LeeOye9_tFRylSMQ", "review_count": 212, "categories": [{"alias": "coffee", "title": "Coffee & Tea"}, {"alias": "coffeeroasteries", "title": "Coffee Roasteries"}], "rating": 4.5, "coordinates": {"latitude": 25.773198, "longitude": -80.1900651}, "transactions": ["delivery", "pickup"], "price": "$$", "location": {"address1": "117 SE 2nd Ave", "address2": "", "address3": "", "city": "Miami", "zip_code": "33131", "country": "US", "state": "FL", "display_address": ["117 SE 2nd Ave", "Miami, FL 33131"]}, "phone": "+13056094981", "display_phone": "(305) 609-4981", "distance": 10073.860888359586}, {"id": "1SkXc0EVVlxhA6pe60uZ2w", "alias": "the-salty-donut-south-miami-miami", "name": "The Salty Donut South Miami", "image_url": "https://s3-media2.fl.yelpcdn.com/bphoto/CmisPrVMseD20aTYawlnnQ/o.jpg", "is_closed": false, "url": "https://www.yelp.com/biz/the-salty-donut-south-miami-miami?adjust_creative=hefHs3LeeOye9_tFRylSMQ&utm_campaign=yelp_api_v3&utm_medium=api_v3_business_search&utm_source=hefHs3LeeOye9_tFRylSMQ", "review_count": 191, "categories": [{"alias": "donuts", "title": "Donuts"}, {"alias": "coffee", "title": "Coffee & Tea"}, {"alias": "bakeries", "title": "Bakeries"}], "rating": 4.5, "coordinates": {"latitude": 25.70251, "longitude": -80.29126}, "transactions": ["delivery"], "price": "$$", "location": {"address1": "6022 S Dixie Hwy", "address2": null, "address3": "", "city": "Miami", "zip_code": "33143", "country": "US", "state": "FL", "display_address": ["6022 S Dixie Hwy", "Miami, FL 33143"]}, "phone": "+17864094714", "display_phone": "(786) 409-4714", "distance": 5596.113988807177}, {"id": "_m03EMSiPKvtsr7t9LzR-g", "alias": "finca-s-coffee-miami", "name": "Finca\u2019s Coffee", "image_url": "https://s3-media4.fl.yelpcdn.com/bphoto/peLjdFzz-PyMJAHkI9DMog/o.jpg", "is_closed": false, "url": "https://www.yelp.com/biz/finca-s-coffee-miami?adjust_creative=hefHs3LeeOye9_tFRylSMQ&utm_campaign=yelp_api_v3&utm_medium=api_v3_business_search&utm_source=hefHs3LeeOye9_tFRylSMQ", "review_count": 13, "categories": [{"alias": "coffee", "title": "Coffee & Tea"}, {"alias": "coffeeroasteries", "title": "Coffee Roasteries"}, {"alias": "cafes", "title": "Cafes"}], "rating": 5.0, "coordinates": {"latitude": 25.76163, "longitude": -80.1903}, "transactions": ["delivery"], "location": {"address1": "1200 Brickell Bay Dr", "address2": "Ste 105", "address3": null, "city": "Miami", "zip_code": "33131", "country": "US", "state": "FL", "display_address": ["1200 Brickell Bay Dr", "Ste 105", "Miami, FL 33131"]}, "phone": "+13057410107", "display_phone": "(305) 741-0107", "distance": 9841.578801281123}, {"id": "yTuL5uQ0PZOaPhKKhPccZg", "alias": "pasion-del-cielo-coffee-miami-5", "name": "Pasion Del Cielo Coffee", "image_url": "https://s3-media3.fl.yelpcdn.com/bphoto/ewMjmZm4Pr1NcKS_OkBQfw/o.jpg", "is_closed": false, "url": "https://www.yelp.com/biz/pasion-del-cielo-coffee-miami-5?adjust_creative=hefHs3LeeOye9_tFRylSMQ&utm_campaign=yelp_api_v3&utm_medium=api_v3_business_search&utm_source=hefHs3LeeOye9_tFRylSMQ", "review_count": 366, "categories": [{"alias": "coffee", "title": "Coffee & Tea"}], "rating": 4.5, "coordinates": {"latitude": 25.6875525702362, "longitude": -80.3127032518387}, "transactions": ["delivery"], "price": "$$", "location": {"address1": "8915 Sw 72nd Pl", "address2": "", "address3": "", "city": "Miami", "zip_code": "33156", "country": "US", "state": "FL", "display_address": ["8915 Sw 72nd Pl", "Miami, FL 33156"]}, "phone": "+17863473507", "display_phone": "(786) 347-3507", "distance": 7657.980614552946}, {"id": "Xyq01Y8f1kh2PoNY3aXQKg", "alias": "all-day-miami", "name": "ALL DAY", "image_url": "https://s3-media2.fl.yelpcdn.com/bphoto/8VzZVZKfMYytY2K8TeEYWg/o.jpg", "is_closed": false, "url": "https://www.yelp.com/biz/all-day-miami?adjust_creative=hefHs3LeeOye9_tFRylSMQ&utm_campaign=yelp_api_v3&utm_medium=api_v3_business_search&utm_source=hefHs3LeeOye9_tFRylSMQ", "review_count": 385, "categories": [{"alias": "coffee", "title": "Coffee & Tea"}, {"alias": "breakfast_brunch", "title": "Breakfast & Brunch"}, {"alias": "sandwiches", "title": "Sandwiches"}], "rating": 4.0, "coordinates": {"latitude": 25.78451, "longitude": -80.1938}, "transactions": ["delivery"], "price": "$$", "location": {"address1": "1035 N Miami Ave", "address2": "", "address3": "", "city": "Miami", "zip_code": "33136", "country": "US", "state": "FL", "display_address": ["1035 N Miami Ave", "Miami, FL 33136"]}, "phone": "+13056993447", "display_phone": "(305) 699-3447", "distance": 10077.973155366979}, {"id": "zjEdfLF4v8WqdkpDiPqjWg", "alias": "suite-habana-cafe-miami", "name": "Suite Habana Cafe", "image_url": "https://s3-media3.fl.yelpcdn.com/bphoto/4xDMeJB_iCU21enhpb3gCg/o.jpg", "is_closed": false, "url": "https://www.yelp.com/biz/suite-habana-cafe-miami?adjust_creative=hefHs3LeeOye9_tFRylSMQ&utm_campaign=yelp_api_v3&utm_medium=api_v3_business_search&utm_source=hefHs3LeeOye9_tFRylSMQ", "review_count": 52, "categories": [{"alias": "coffee", "title": "Coffee & Tea"}, {"alias": "bakeries", "title": "Bakeries"}], "rating": 5.0, "coordinates": {"latitude": 25.802, "longitude": -80.19478}, "transactions": ["delivery"], "location": {"address1": "2609 N Miami Ave", "address2": null, "address3": "", "city": "Miami", "zip_code": "33127", "country": "US", "state": "FL", "display_address": ["2609 N Miami Ave", "Miami, FL 33127"]}, "phone": "+17863879771", "display_phone": "(786) 387-9771", "distance": 10818.387279409522}, {"id": "ESuHmNFTNcehIInpRVE4jg", "alias": "the-salty-donut-miami-3", "name": "The Salty Donut", "image_url": "https://s3-media1.fl.yelpcdn.com/bphoto/Z14GLdIxNJ1XsuQdYUdOuA/o.jpg", "is_closed": false, "url": "https://www.yelp.com/biz/the-salty-donut-miami-3?adjust_creative=hefHs3LeeOye9_tFRylSMQ&utm_campaign=yelp_api_v3&utm_medium=api_v3_business_search&utm_source=hefHs3LeeOye9_tFRylSMQ", "review_count": 1981, "categories": [{"alias": "donuts", "title": "Donuts"}, {"alias": "coffee", "title": "Coffee & Tea"}, {"alias": "bakeries", "title": "Bakeries"}], "rating": 4.5, "coordinates": {"latitude": 25.799394633506, "longitude": -80.196191}, "transactions": ["delivery"], "price": "$$", "location": {"address1": "50 NW 23rd St", "address2": "Ste 112", "address3": null, "city": "Miami", "zip_code": "33127", "country": "US", "state": "FL", "display_address": ["50 NW 23rd St", "Ste 112", "Miami, FL 33127"]}, "phone": "+13056398501", "display_phone": "(305) 639-8501", "distance": 10562.436589731025}, {"id": "vdVcIQCeaoWvRuAlQZzVNw", "alias": "caf\u00e9-bea-miami", "name": "Caf\u00e9 Bea", "image_url": "https://s3-media4.fl.yelpcdn.com/bphoto/HIbopPPoCRG6hlleBHj3_g/o.jpg", "is_closed": false, "url": "https://www.yelp.com/biz/caf%C3%A9-bea-miami?adjust_creative=hefHs3LeeOye9_tFRylSMQ&utm_campaign=yelp_api_v3&utm_medium=api_v3_business_search&utm_source=hefHs3LeeOye9_tFRylSMQ", "review_count": 277, "categories": [{"alias": "cafes", "title": "Cafes"}, {"alias": "coffee", "title": "Coffee & Tea"}], "rating": 4.5, "coordinates": {"latitude": 25.74189, "longitude": -80.42339}, "transactions": ["delivery", "pickup"], "price": "$", "location": {"address1": "2753 SW 142nd Ave", "address2": null, "address3": "", "city": "Miami", "zip_code": "33175", "country": "US", "state": "FL", "display_address": ["2753 SW 142nd Ave", "Miami, FL 33175"]}, "phone": "+17864828232", "display_phone": "(786) 482-8232", "distance": 13619.16199503506}, {"id": "Yaq6I5aAraLKZQLjPNa9-w", "alias": "specialtea-lounge-miami", "name": "specialTEA Lounge", "image_url": "https://s3-media3.fl.yelpcdn.com/bphoto/KwwoTs22AKY-7fJkxCHWpg/o.jpg", "is_closed": false, "url": "https://www.yelp.com/biz/specialtea-lounge-miami?adjust_creative=hefHs3LeeOye9_tFRylSMQ&utm_campaign=yelp_api_v3&utm_medium=api_v3_business_search&utm_source=hefHs3LeeOye9_tFRylSMQ", "review_count": 773, "categories": [{"alias": "coffee", "title": "Coffee & Tea"}, {"alias": "tea", "title": "Tea Rooms"}, {"alias": "sandwiches", "title": "Sandwiches"}], "rating": 4.5, "coordinates": {"latitude": 25.746051, "longitude": -80.369099}, "transactions": ["delivery", "pickup"], "price": "$", "location": {"address1": "10766 SW 24th St", "address2": "", "address3": "", "city": "Miami", "zip_code": "33165", "country": "US", "state": "FL", "display_address": ["10766 SW 24th St", "Miami, FL 33165"]}, "phone": "+13055548327", "display_phone": "(305) 554-8327", "distance": 8147.898235315884}, {"id": "tlI1H4HtJgbHC1oMB-N-RQ", "alias": "vice-city-bean-miami", "name": "Vice City Bean", "image_url": "https://s3-media2.fl.yelpcdn.com/bphoto/kYeTybthHdQwilJbD-jWmA/o.jpg", "is_closed": false, "url": "https://www.yelp.com/biz/vice-city-bean-miami?adjust_creative=hefHs3LeeOye9_tFRylSMQ&utm_campaign=yelp_api_v3&utm_medium=api_v3_business_search&utm_source=hefHs3LeeOye9_tFRylSMQ", "review_count": 147, "categories": [{"alias": "coffee", "title": "Coffee & Tea"}], "rating": 4.5, "coordinates": {"latitude": 25.7915522969237, "longitude": -80.1940996754198}, "transactions": ["delivery"], "price": "$$", "location": {"address1": "1657 N Miami Ave", "address2": "Ste C", "address3": "", "city": "Miami", "zip_code": "33136", "country": "US", "state": "FL", "display_address": ["1657 N Miami Ave", "Ste C", "Miami, FL 33136"]}, "phone": "+13057268031", "display_phone": "(305) 726-8031", "distance": 10352.963972656551}, {"id": "667LSjtpdzNkpbxvZMIflg", "alias": "oh-my-gosh-brigadeiros-coral-gables-miami", "name": "OH MY GOSH! Brigadeiros - Coral Gables", "image_url": "https://s3-media1.fl.yelpcdn.com/bphoto/6D3rUeJ3MzUUFT8XcJ_Rbw/o.jpg", "is_closed": false, "url": "https://www.yelp.com/biz/oh-my-gosh-brigadeiros-coral-gables-miami?adjust_creative=hefHs3LeeOye9_tFRylSMQ&utm_campaign=yelp_api_v3&utm_medium=api_v3_business_search&utm_source=hefHs3LeeOye9_tFRylSMQ", "review_count": 248, "categories": [{"alias": "desserts", "title": "Desserts"}, {"alias": "coffee", "title": "Coffee & Tea"}, {"alias": "chocolate", "title": "Chocolatiers & Shops"}], "rating": 4.5, "coordinates": {"latitude": 25.750199, "longitude": -80.232076}, "transactions": ["delivery", "pickup"], "price": "$$", "location": {"address1": "2205 SW 23rd Ave", "address2": "", "address3": null, "city": "Miami", "zip_code": "33145", "country": "US", "state": "FL", "display_address": ["2205 SW 23rd Ave", "Miami, FL 33145"]}, "phone": "+13054568378", "display_phone": "(305) 456-8378", "distance": 5616.679792742844}, {"id": "z8L0icMYV3TbkouLMVOVag", "alias": "dior-cafe-miami", "name": "Dior Cafe", "image_url": "https://s3-media1.fl.yelpcdn.com/bphoto/LKgdR93YOXbaJzVfgraiyg/o.jpg", "is_closed": false, "url": "https://www.yelp.com/biz/dior-cafe-miami?adjust_creative=hefHs3LeeOye9_tFRylSMQ&utm_campaign=yelp_api_v3&utm_medium=api_v3_business_search&utm_source=hefHs3LeeOye9_tFRylSMQ", "review_count": 96, "categories": [{"alias": "coffee", "title": "Coffee & Tea"}, {"alias": "bakeries", "title": "Bakeries"}, {"alias": "juicebars", "title": "Juice Bars & Smoothies"}], "rating": 4.0, "coordinates": {"latitude": 25.8125962097451, "longitude": -80.1921594142914}, "transactions": ["delivery"], "location": {"address1": "162 NE 39th St", "address2": "Fl 3", "address3": null, "city": "Miami", "zip_code": "33137", "country": "US", "state": "FL", "display_address": ["162 NE 39th St", "Fl 3", "Miami, FL 33137"]}, "phone": "+13055764632", "display_phone": "(305) 576-4632", "distance": 11684.515291518635}], "total": 2900, "region": {"center": {"longitude": -80.2880859375, "latitude": 25.752753731496888}}}
